{
  "type": "FeatureCollection",
  "features": [
    {"type": "Feature", "geometry": {"type": "Point", "coordinates": [-57.5928084, -38.044272]}, "properties": {"camera_number": "12", "address": "Avenida Mario Bravo y Talcahuano, Mar del Plata, Provincia de Buenos Aires, Argentina", "barrio": "General San Martin", "lpr": 1}},
    {"type": "Feature", "geometry": {"type": "Point", "coordinates": [-57.5853132, -37.962936]}, "properties": {"camera_number": "14", "address": "Avenida Doctor Arturo Alio y Berutti, Mar del Plata, Provincia de Buenos Aires, Argentina", "barrio": "Malvinas Argentinas", "lpr": 1}},
    {"type": "Feature", "geometry": {"type": "Point", "coordinates": [-57.5984115, -37.979096]}, "properties": {"camera_number": "22", "address": "Avenida Colon y  Avenida Doctor Arturo Alio, Mar del Plata, Provincia de Buenos Aires, Argentina", "barrio": "Coronel Dorrego", "lpr": 1}},
    {"type": "Feature", "geometry": {"type": "Point", "coordinates": [-57.543546, -37.97015]}, "properties": {"camera_number": "29", "address": "Constitucion y la Costa, Mar del Plata, Provincia de Buenos Aires, Argentina", "barrio": "Constitucion", "lpr": 1}},
    {"type": "Feature", "geometry": {"type": "Point", "coordinates": [-57.603612, -37.962734]}, "properties": {"camera_number": "48", "address": "Avenida Libertad y Brasil, Mar del Plata, Provincia de Buenos Aires, Argentina", "barrio": "Libertad", "lpr": 1}},
    {"type": "Feature", "geometry": {"type": "Point", "coordinates": [-57.5947315, -38.042963]}, "properties": {"camera_number": "62", "address": "Avenida Mario Bravo y AvenidaAntartida Argentina, Mar del Plata, Provincia de Buenos Aires, Argentina", "barrio": "Florencio Sanchez", "lpr": 1}},
    {"type": "Feature", "geometry": {"type": "Point", "coordinates": [-57.602293, -38.011125]}, "properties": {"camera_number": "74", "address": "Avenida Vertiz y Reforma Universitaria, Mar del Plata, Provincia de Buenos Aires, Argentina", "barrio": "San Antono", "lpr": 1}},
    {"type": "Feature", "geometry": {"type": "Point", "coordinates": [-57.5876566, -38.032577]}, "properties": {"camera_number": "79", "address": "Avenida Jacinto Peralta Ramos y Avenida Fortunato de la Plaza, Mar del Plata, Provincia de Buenos Aires, Argentina", "barrio": "El Progreso", "lpr": 1}},
    {"type": "Feature", "geometry": {"type": "Point", "coordinates": [-57.5423229, -38.005856]}, "properties": {"camera_number": "108", "address": "Avenida Patricio Peralta Ramos y Arenales, Mar del Plata, Provincia de Buenos Aires, Argentina", "barrio": "Centro", "lpr": 1}},
    {"type": "Feature", "geometry": {"type": "Point", "coordinates": [-57.5875485, -37.993565]}, "properties": {"camera_number": "150", "address": "Teodoro Bronzini y Alvarado, Mar del Plata, Provincia de Buenos Aires, Argentina", "barrio": "Bernardino Rivadavia", "lpr": 1}},
    {"type": "Feature", "geometry": {"type": "Point", "coordinates": [-57.5928084, -38.044272]}, "properties": {"camera_number": "215", "address": "Rosales 9800, Mar del Plata, Provincia de Buenos Aires, Argentina", "barrio": "Don Emilio", "lpr": 1}},
    {"type": "Feature", "geometry": {"type": "Point", "coordinates": [-57.6021868, -38.126321]}, "properties": {"camera_number": "223", "address": "Ruta 11 y 515, Mar del Plata, Provincia de Buenos Aires, Argentina", "barrio": "Los Acantilados", "lpr": 1}},
    {"type": "Feature", "geometry": {"type": "Point", "coordinates": [-57.6138226, -38.008918]}, "properties": {"camera_number": "226", "address": "Avenida Presidente Peron y Soler, Mar del Plata, Provincia de Buenos Aires, Argentina", "barrio": "Don Emilio", "lpr": 1}},
    {"type": "Feature", "geometry": {"type": "Point", "coordinates": [-57.5475737, -38.093614]}, "properties": {"camera_number": "239", "address": "Rotonda del Faro. Plazoleta Castilla yLeon, Mar del Plata, Provincia de Buenos Aires, Argentina", "barrio": "Faro Norte", "lpr": 1}},
    {"type": "Feature", "geometry": {"type": "Point", "coordinates": [-57.5712209, -38.060584]}, "properties": {"camera_number": "244", "address": "Avenida Mario Bravo y Avenida Edison, Mar del Plata, Provincia de Buenos Aires, Argentina", "barrio": "Juramento", "lpr": 1}},
    {"type": "Feature", "geometry": {"type": "Point", "coordinates": [-57.6365989, -37.954129]}, "properties": {"camera_number": "246", "address": "Avenida Pedro Luro y Tarantino, Mar del Plata, Provincia de Buenos Aires, Argentina", "barrio": "La Herradura", "lpr": 1}},
    {"type": "Feature", "geometry": {"type": "Point", "coordinates": [-57.53483, -38.03019]}, "properties": {"camera_number": "306", "address": "Avenida Patricio Peralta Ramos y Formosa, Mar del Plata, Provincia de Buenos Aires, Argentina", "barrio": "Playa Grande", "lpr": 1}},
    {"type": "Feature", "geometry": {"type": "Point", "coordinates": [-57.6266578, -37.95795]}, "properties": {"camera_number": "304", "address": "Avenida Pedro Luro y Carrillo, Mar del Plata, Provincia de Buenos Aires, Argentina", "barrio": "Florentino Ameghino", "lpr": 1}},
    {"type": "Feature", "geometry": {"type": "Point", "coordinates": [-57.603612, -37.962734]}, "properties": {"camera_number": "332", "address": "Avenida Colon y  Avenida Hector Tarantino, Mar del Plata, Provincia de Buenos Aires, Argentina", "barrio": "Hipodromo", "lpr": 1}},
    {"type": "Feature", "geometry": {"type": "Point", "coordinates": [-57.5909153, -37.991873]}, "properties": {"camera_number": "339", "address": "Avenida M. Champagnat y Alvarado, Mar del Plata, Provincia de Buenos Aires, Argentina", "barrio": "Bernardino Rivadavia", "lpr": 1}},
    {"type": "Feature", "geometry": {"type": "Point", "coordinates": [-57.5545189, -38.031497]}, "properties": {"camera_number": "367", "address": "Avenida Juan B. Justo y Martin Miguel de Guemes, Mar del Plata, Provincia de Buenos Aires, Argentina", "barrio": "San Carlos", "lpr": 1}},
    {"type": "Feature", "geometry": {"type": "Point", "coordinates": [-57.5255168, -38.01931]}, "properties": {"camera_number": "381", "address": "Cabo Corrientes Center, Mar del Plata, Provincia de Buenos Aires, Argentina", "barrio": "Lomas de Stella Maris", "lpr": 1}},
    {"type": "Feature", "geometry": {"type": "Point", "coordinates": [-57.596984, -38.015127]}, "properties": {"camera_number": "405", "address": "Avenida Polonia y Avenida Vertiz, Mar del Plata, Provincia de Buenos Aires, Argentina", "barrio": "Bosque Grande", "lpr": 1}},
    {"type": "Feature", "geometry": {"type": "Point", "coordinates": [-57.546153, -37.998513]}, "properties": {"camera_number": "436", "address": "Luro y Cordoba, Mar del Plata, Provincia de Buenos Aires, Argentina", "barrio": "Centro", "lpr": 1}},
    {"type": "Feature", "geometry": {"type": "Point", "coordinates": [-57.5325835, -38.012756]}, "properties": {"camera_number": "440", "address": "Avenida Patricio Peralta Ramos, Mar del Plata, Provincia de Buenos Aires, Argentina", "barrio": "Lomas de Stella Maris", "lpr": 1}},
    {"type": "Feature", "geometry": {"type": "Point", "coordinates": [-57.6140272, -38.012754]}, "properties": {"camera_number": "472", "address": "Fortunato de la Plaza y Tetamanti, Mar del Plata, Provincia de Buenos Aires, Argentina", "barrio": "Bosque Grande", "lpr": 1}},
    {"type": "Feature", "geometry": {"type": "Point", "coordinates": [-57.5538767, -37.999288]}, "properties": {"camera_number": "520", "address": "Moreno y Catamarca, Mar del Plata, Provincia de Buenos Aires, Argentina", "barrio": "Centro", "lpr": 1}},
    {"type": "Feature", "geometry": {"type": "Point", "coordinates": [-57.57946, -38.0543]}, "properties": {"camera_number": "625", "address": "Avenida Mario Bravo y Jose Hernandez, Mar del Plata, Provincia de Buenos Aires, Argentina", "barrio": "Cerrito Sur", "lpr": 1}},
    {"type": "Feature", "geometry": {"type": "Point", "coordinates": [-57.5881438, -37.987541]}, "properties": {"camera_number": "661", "address": "Gascon y Champagnat, Mar del Plata, Provincia de Buenos Aires, Argentina", "barrio": "Los Andes", "lpr": 1}},
    {"type": "Feature", "geometry": {"type": "Point", "coordinates": [-57.6914886, -38.006574]}, "properties": {"camera_number": "573", "address": "Ruta Provincial 88 y Acceso a Chapadmalall, Mar del Plata, Provincia de Buenos Aires, Argentina", "barrio": "El Colmenar", "lpr": 1}},
    {"type": "Feature", "geometry": {"type": "Point", "coordinates": [-57.5315803, -37.932353]}, "properties": {"camera_number": "589", "address": "Ruta Provincial 11 y Calle Scaglia, Mar del Plata, Provincia de Buenos Aires, Argentina", "barrio": "Parque Camet", "lpr": 1}},
    {"type": "Feature", "geometry": {"type": "Point", "coordinates": [-57.5581061, -38.099408]}, "properties": {"camera_number": "648", "address": "Ruta Provincial 11 y Toscana, Mar del Plata, Provincia de Buenos Aires, Argentina", "barrio": "Alfar", "lpr": 1}},
    {"type": "Feature", "geometry": {"type": "Point", "coordinates": [-57.6109001, -38.056516]}, "properties": {"camera_number": "649", "address": "AvenidaAntartida Argentina y Cacique Chuyantuya, Mar del Plata, Provincia de Buenos Aires, Argentina", "barrio": "Lomas del Golf", "lpr": 1}},
    {"type": "Feature", "geometry": {"type": "Point", "coordinates": [-57.5339843, -38.028355]}, "properties": {"camera_number": "667", "address": "Avenida Patricio Peralta Ramos 5801, Mar del Plata, Provincia de Buenos Aires, Argentina", "barrio": "Playa Grande", "lpr": 1}},
    {"type": "Feature", "geometry": {"type": "Point", "coordinates": [-57.5939323, -37.994757]}, "properties": {"camera_number": "668", "address": "Champagnat 3400, Mar del Plata, Provincia de Buenos Aires, Argentina", "barrio": "Regional", "lpr": 1}},
    {"type": "Feature", "geometry": {"type": "Point", "coordinates": [-57.5863428, -37.933928]}, "properties": {"camera_number": "684", "address": "Ruta 2 y Rotonda Aeropuerto, Mar del Plata, Provincia de Buenos Aires, Argentina", "barrio": "Aeroparque", "lpr": 1}},
    {"type": "Feature", "geometry": {"type": "Point", "coordinates": [-57.5754804, -37.983806]}, "properties": {"camera_number": "809", "address": "Avenida Pedro Luro y Mexico, Mar del Plata, Provincia de Buenos Aires, Argentina", "barrio": "Los Andes", "lpr": 1}}
  ]
}
