{
  "type": "FeatureCollection",
  "features": [
    {"type": "Feature", "properties": {"id": 1, "camera_number": "SMM-001", "address": "Avenida Costanera esquina Calle Principal", "barrio": "PUERTO Y MALECÓN", "city": "San Martín del Mar", "province": "Corrientes", "domes": 2, "fixed": 1, "lpr": 0, "total_cameras": 3, "type": "Pública (Municipal)", "corridor": false, "school_corridor": false, "monitoring": true}, "geometry": {"type": "Point", "coordinates": [-58.13, -29.79]}},
    {"type": "Feature", "properties": {"id": 2, "camera_number": "SMM-002", "address": "Calle Rivadavia 125", "barrio": "CENTRO HISTORICO", "city": "San Martín del Mar", "province": "Corrientes", "domes": 1, "fixed": 2, "lpr": 0, "total_cameras": 3, "type": "Pública (Municipal)", "corridor": false, "school_corridor": false, "monitoring": true}, "geometry": {"type": "Point", "coordinates": [-58.11, -29.80]}},
    {"type": "Feature", "properties": {"id": 3, "camera_number": "SMM-003", "address": "Avenida Central 800", "barrio": "RESIDENCIAL NORTE", "city": "San Martín del Mar", "province": "Corrientes", "domes": 2, "fixed": 0, "lpr": 1, "total_cameras": 3, "type": "Pública (Municipal)", "corridor": false, "school_corridor": false, "monitoring": true}, "geometry": {"type": "Point", "coordinates": [-58.09, -29.78]}},
    {"type": "Feature", "properties": {"id": 4, "camera_number": "SMM-004", "address": "Calle Belgrano 345", "barrio": "CENTRO HISTORICO", "city": "San Martín del Mar", "province": "Corrientes", "domes": 1, "fixed": 1, "lpr": 0, "total_cameras": 2, "type": "Pública (Municipal)", "corridor": false, "school_corridor": false, "monitoring": true}, "geometry": {"type": "Point", "coordinates": [-58.11, -29.81]}},
    {"type": "Feature", "properties": {"id": 5, "camera_number": "SMM-005", "address": "Calle San Martín 678", "barrio": "BALNEARIO SUR", "city": "San Martín del Mar", "province": "Corrientes", "domes": 0, "fixed": 2, "lpr": 0, "total_cameras": 2, "type": "Pública (Municipal)", "corridor": false, "school_corridor": false, "monitoring": true}, "geometry": {"type": "Point", "coordinates": [-58.11, -29.84]}},
    {"type": "Feature", "properties": {"id": 6, "camera_number": "SMM-006", "address": "Ruta Nacional 12 Km 5", "barrio": "ZONA INDUSTRIAL", "city": "San Martín del Mar", "province": "Corrientes", "domes": 2, "fixed": 1, "lpr": 1, "total_cameras": 4, "type": "Pública (Municipal)", "corridor": true, "school_corridor": false, "monitoring": true}, "geometry": {"type": "Point", "coordinates": [-58.07, -29.81]}},
    {"type": "Feature", "properties": {"id": 7, "camera_number": "SMM-007", "address": "Avenida Mitre 555", "barrio": "RESIDENCIAL NORTE", "city": "San Martín del Mar", "province": "Corrientes", "domes": 1, "fixed": 1, "lpr": 0, "total_cameras": 2, "type": "Pública (Municipal)", "corridor": false, "school_corridor": false, "monitoring": true}, "geometry": {"type": "Point", "coordinates": [-58.09, -29.79]}},
    {"type": "Feature", "properties": {"id": 8, "camera_number": "SMM-008", "address": "Calle De los Andes 230", "barrio": "CENTRO HISTORICO", "city": "San Martín del Mar", "province": "Corrientes", "domes": 1, "fixed": 0, "lpr": 0, "total_cameras": 1, "type": "Pública (Municipal)", "corridor": false, "school_corridor": true, "monitoring": true}, "geometry": {"type": "Point", "coordinates": [-58.12, -29.80]}},
    {"type": "Feature", "properties": {"id": 9, "camera_number": "SMM-009", "address": "Calle Tucumán 412", "barrio": "PUERTO Y MALECÓN", "city": "San Martín del Mar", "province": "Corrientes", "domes": 2, "fixed": 1, "lpr": 0, "total_cameras": 3, "type": "Pública (Municipal)", "corridor": false, "school_corridor": false, "monitoring": true}, "geometry": {"type": "Point", "coordinates": [-58.14, -29.79]}},
    {"type": "Feature", "properties": {"id": 10, "camera_number": "SMM-010", "address": "Avenida Principal esquina Sur", "barrio": "ZONA INDUSTRIAL", "city": "San Martín del Mar", "province": "Corrientes", "domes": 1, "fixed": 2, "lpr": 1, "total_cameras": 4, "type": "Pública (Municipal)", "corridor": true, "school_corridor": false, "monitoring": true}, "geometry": {"type": "Point", "coordinates": [-58.08, -29.82]}},
    {"type": "Feature", "properties": {"id": 11, "camera_number": "SMM-011", "address": "Calle Sarmiento 789", "barrio": "RESIDENCIAL NORTE", "city": "San Martín del Mar", "province": "Corrientes", "domes": 0, "fixed": 1, "lpr": 0, "total_cameras": 1, "type": "Pública (Municipal)", "corridor": false, "school_corridor": false, "monitoring": true}, "geometry": {"type": "Point", "coordinates": [-58.10, -29.77]}},
    {"type": "Feature", "properties": {"id": 12, "camera_number": "SMM-012", "address": "Avenida del Puerto 340", "barrio": "PUERTO Y MALECÓN", "city": "San Martín del Mar", "province": "Corrientes", "domes": 2, "fixed": 2, "lpr": 0, "total_cameras": 4, "type": "Pública (Municipal)", "corridor": false, "school_corridor": false, "monitoring": true}, "geometry": {"type": "Point", "coordinates": [-58.14, -29.78]}},
    {"type": "Feature", "properties": {"id": 13, "camera_number": "SMM-013", "address": "Calle Corrientes 567", "barrio": "CENTRO HISTORICO", "city": "San Martín del Mar", "province": "Corrientes", "domes": 1, "fixed": 1, "lpr": 0, "total_cameras": 2, "type": "Pública (Municipal)", "corridor": false, "school_corridor": false, "monitoring": true}, "geometry": {"type": "Point", "coordinates": [-58.11, -29.80]}},
    {"type": "Feature", "properties": {"id": 14, "camera_number": "SMM-014", "address": "Parada Central de Autobús", "barrio": "CENTRO HISTORICO", "city": "San Martín del Mar", "province": "Corrientes", "domes": 2, "fixed": 0, "lpr": 0, "total_cameras": 2, "type": "Pública (Municipal)", "corridor": false, "school_corridor": false, "monitoring": true}, "geometry": {"type": "Point", "coordinates": [-58.12, -29.81]}},
    {"type": "Feature", "properties": {"id": 15, "camera_number": "SMM-015", "address": "Calle Constitución 901", "barrio": "BALNEARIO SUR", "city": "San Martín del Mar", "province": "Corrientes", "domes": 1, "fixed": 1, "lpr": 0, "total_cameras": 2, "type": "Pública (Municipal)", "corridor": false, "school_corridor": false, "monitoring": true}, "geometry": {"type": "Point", "coordinates": [-58.10, -29.85]}},
    {"type": "Feature", "properties": {"id": 16, "camera_number": "SMM-016", "address": "Circunvalación Oeste", "barrio": "ZONA INDUSTRIAL", "city": "San Martín del Mar", "province": "Corrientes", "domes": 2, "fixed": 1, "lpr": 1, "total_cameras": 4, "type": "Pública (Municipal)", "corridor": true, "school_corridor": false, "monitoring": true}, "geometry": {"type": "Point", "coordinates": [-58.06, -29.81]}},
    {"type": "Feature", "properties": {"id": 17, "camera_number": "SMM-017", "address": "Calle Pueyrredón 234", "barrio": "RESIDENCIAL NORTE", "city": "San Martín del Mar", "province": "Corrientes", "domes": 1, "fixed": 0, "lpr": 0, "total_cameras": 1, "type": "Pública (Municipal)", "corridor": false, "school_corridor": false, "monitoring": true}, "geometry": {"type": "Point", "coordinates": [-58.09, -29.78]}},
    {"type": "Feature", "properties": {"id": 18, "camera_number": "SMM-018", "address": "Avenida Fierro 656", "barrio": "CENTRO HISTORICO", "city": "San Martín del Mar", "province": "Corrientes", "domes": 1, "fixed": 1, "lpr": 0, "total_cameras": 2, "type": "Pública (Municipal)", "corridor": false, "school_corridor": false, "monitoring": true}, "geometry": {"type": "Point", "coordinates": [-58.11, -29.81]}},
    {"type": "Feature", "properties": {"id": 19, "camera_number": "SMM-019", "address": "Calle Dorrego 445", "barrio": "PUERTO Y MALECÓN", "city": "San Martín del Mar", "province": "Corrientes", "domes": 0, "fixed": 2, "lpr": 0, "total_cameras": 2, "type": "Pública (Municipal)", "corridor": false, "school_corridor": false, "monitoring": true}, "geometry": {"type": "Point", "coordinates": [-58.13, -29.80]}},
    {"type": "Feature", "properties": {"id": 20, "camera_number": "SMM-020", "address": "Entrada Zona Industrial Sur", "barrio": "ZONA INDUSTRIAL", "city": "San Martín del Mar", "province": "Corrientes", "domes": 2, "fixed": 2, "lpr": 1, "total_cameras": 5, "type": "Pública (Municipal)", "corridor": true, "school_corridor": false, "monitoring": true}, "geometry": {"type": "Point", "coordinates": [-58.07, -29.82]}}
  ]
}
