{
"type": "FeatureCollection",
"name": "COLEGIOS",
"features": [
{ "type": "Feature", "properties": { "Name": "Juramento 961 - C. Nº1", "description": null }, "geometry": { "type": "Point", "coordinates": [ -57.559768, -38.040143, 0.0 ] } },
{ "type": "Feature", "properties": { "Name": "William Morris 3566 - C. Nº19", "description": null }, "geometry": { "type": "Point", "coordinates": [ -57.568713, -38.057549, 0.0 ] } },
{ "type": "Feature", "properties": { "Name": "Hernandarias 4356 - C. Nº1", "description": null }, "geometry": { "type": "Point", "coordinates": [ -57.559845, -38.039483, 0.0 ] } },
{ "type": "Feature", "properties": { "Name": "Guanahani 4397 - C. Nº1", "description": null }, "geometry": { "type": "Point", "coordinates": [ -57.560712, -38.039744, 0.0 ] } },
{ "type": "Feature", "properties": { "Name": "Alejandro Korn 2279 - C. Nº2", "description": null }, "geometry": { "type": "Point", "coordinates": [ -57.57117, -38.048018, 0.0 ] } },
{ "type": "Feature", "properties": { "Name": "Lebensohn 4856 - C. Nº2", "description": null }, "geometry": { "type": "Point", "coordinates": [ -57.573964, -38.044378, 0.0 ] } },
{ "type": "Feature", "properties": { "Name": "José Hernández 2286 - C. Nº2", "description": null }, "geometry": { "type": "Point", "coordinates": [ -57.572382, -38.04796, 0.0 ] } },
{ "type": "Feature", "properties": { "Name": "Juan B. Justo 745 -C. Nº3", "description": null }, "geometry": { "type": "Point", "coordinates": [ -57.549392, -38.034898, 0.0 ] } },
{ "type": "Feature", "properties": { "Name": "Magnasco 2179 - C. Nº 4", "description": null }, "geometry": { "type": "Point", "coordinates": [ -57.602248, -38.024097, 0.0 ] } },
{ "type": "Feature", "properties": { "Name": "Int. Andrés Mac Gaul 2754 - C. Nº4", "description": null }, "geometry": { "type": "Point", "coordinates": [ -57.617821, -38.019778, 0.0 ] } },
{ "type": "Feature", "properties": { "Name": "Goñi 2624- C. Nº4", "description": null }, "geometry": { "type": "Point", "coordinates": [ -57.610748, -38.019492, 0.0 ] } },
{ "type": "Feature", "properties": { "Name": "E.P 7 Y 201 - C. Nº 4", "description": null }, "geometry": { "type": "Point", "coordinates": [ -57.613064, -38.021519, 0.0 ] } },
{ "type": "Feature", "properties": { "Name": "INT. EDUARDO PERALTA RAMOS 230 - C. Nº 4", "description": null }, "geometry": { "type": "Point", "coordinates": [ -57.615675, -38.021051, 0.0 ] } },
{ "type": "Feature", "properties": { "Name": "EES 69 - C. Nº 4", "description": "LAS HERAS" }, "geometry": { "type": "Point", "coordinates": [ -57.615597, -38.021209, 0.0 ] } },
{ "type": "Feature", "properties": { "Name": "El cano 10024 - C. Nº5", "description": null }, "geometry": { "type": "Point", "coordinates": [ -57.604358, -37.997953, 0.0 ] } },
{ "type": "Feature", "properties": { "Name": "12 de Octubre 10052 - C. Nº5", "description": null }, "geometry": { "type": "Point", "coordinates": [ -57.605898, -37.998266, 0.0 ] } },
{ "type": "Feature", "properties": { "Name": "Irala 9820 - C. Nº5", "description": null }, "geometry": { "type": "Point", "coordinates": [ -57.6069, -38.001176, 0.0 ] } },
{ "type": "Feature", "properties": { "Name": "Alvarado 8053 - C. Nº6", "description": null }, "geometry": { "type": "Point", "coordinates": [ -57.610196, -37.982063, 0.0 ] } },
{ "type": "Feature", "properties": { "Name": "Castelli 8050 - C. Nº6", "description": null }, "geometry": { "type": "Point", "coordinates": [ -57.609447, -37.981245, 0.0 ] } },
{ "type": "Feature", "properties": { "Name": "Bouchard 11232 - C. Nº7", "description": null }, "geometry": { "type": "Point", "coordinates": [ -57.62402, -37.997319, 0.0 ] } },
{ "type": "Feature", "properties": { "Name": "Rosales & Virrey Del Pino - C. Nº7", "description": null }, "geometry": { "type": "Point", "coordinates": [ -57.632527, -37.991626, 0.0 ] } },
{ "type": "Feature", "properties": { "Name": "calle 238 y 39 - C. Nº 7", "description": null }, "geometry": { "type": "Point", "coordinates": [ -57.634663, -37.996667, 0.0 ] } },
{ "type": "Feature", "properties": { "Name": "Calle 236 entre 39 y 41 - C. Nº7", "description": null }, "geometry": { "type": "Point", "coordinates": [ -57.633631, -37.997223, 0.0 ] } },
{ "type": "Feature", "properties": { "Name": "CENS 464 - C. Nº 7", "description": "AUTODROMO" }, "geometry": { "type": "Point", "coordinates": [ -57.634335, -37.996504, 0.0 ] } },
{ "type": "Feature", "properties": { "Name": "Libres del Sud 1450 - C. Nº 8", "description": null }, "geometry": { "type": "Point", "coordinates": [ -57.544021, -37.965258, 0.0 ] } },
{ "type": "Feature", "properties": { "Name": "LIBRES DEL SUD 1460 - C. Nº8", "description": null }, "geometry": { "type": "Point", "coordinates": [ -57.54438, -37.96479, 0.0 ] } },
{ "type": "Feature", "properties": { "Name": "San Luis 1415 - C. Nº 9", "description": null }, "geometry": { "type": "Point", "coordinates": [ -57.545984, -37.996574, 0.0 ] } },
{ "type": "Feature", "properties": { "Name": "San Luis 1445 - C. Nº9", "description": null }, "geometry": { "type": "Point", "coordinates": [ -57.546253, -37.996782, 0.0 ] } },
{ "type": "Feature", "properties": { "Name": "25 DE MAYO 2751 - C. Nº 9", "description": null }, "geometry": { "type": "Point", "coordinates": [ -57.546832, -37.99684, 0.0 ] } },
{ "type": "Feature", "properties": { "Name": "Diag. Alberdi Sur 2695 - C. Nº9", "description": null }, "geometry": { "type": "Point", "coordinates": [ -57.546308, -37.997222, 0.0 ] } },
{ "type": "Feature", "properties": { "Name": "25 de Mayo 2855 - C. Nº9", "description": null }, "geometry": { "type": "Point", "coordinates": [ -57.548011, -37.996238, 0.0 ] } },
{ "type": "Feature", "properties": { "Name": "Hipólito Yrigoyen 1346 - C. Nº9", "description": null }, "geometry": { "type": "Point", "coordinates": [ -57.547443, -37.995034, 0.0 ] } },
{ "type": "Feature", "properties": { "Name": "Gascón & Catamarca - C. Nº 10", "description": null }, "geometry": { "type": "Point", "coordinates": [ -57.557124, -38.003386, 0.0 ] } },
{ "type": "Feature", "properties": { "Name": "Falucho & Bartolomé Mitre - C. Nº 10", "description": null }, "geometry": { "type": "Point", "coordinates": [ -57.553484, -38.004091, 0.0 ] } },
{ "type": "Feature", "properties": { "Name": "Bartolomé Mitre 2474 - C. Nº 10", "description": null }, "geometry": { "type": "Point", "coordinates": [ -57.55384, -38.004721, 0.0 ] } },
{ "type": "Feature", "properties": { "Name": "Mitre 2579 - C. Nº10", "description": null }, "geometry": { "type": "Point", "coordinates": [ -57.554914, -38.005325, 0.0 ] } },
{ "type": "Feature", "properties": { "Name": "14 de Julio & Falucho - C. Nº 11", "description": null }, "geometry": { "type": "Point", "coordinates": [ -57.563236, -38.00027, 0.0 ] } },
{ "type": "Feature", "properties": { "Name": "H. de Yrigoyen 3529 - C. Nº12", "description": null }, "geometry": { "type": "Point", "coordinates": [ -57.561926, -38.012483, 0.0 ] } },
{ "type": "Feature", "properties": { "Name": "Catamarca 3644 - C. Nº 12", "description": null }, "geometry": { "type": "Point", "coordinates": [ -57.563959, -38.012712, 0.0 ] } },
{ "type": "Feature", "properties": { "Name": "COMPLEJO UNIVERSITARIO - C. Nº 13", "description": "PINOS DE ANCHORENA" }, "geometry": { "type": "Point", "coordinates": [ -57.571309, -38.005743, 0.0 ] } },
{ "type": "Feature", "properties": { "Name": "Rodríguez Peña 4046 - C. Nº13", "description": null }, "geometry": { "type": "Point", "coordinates": [ -57.572425, -38.00585, 0.0 ] } },
{ "type": "Feature", "properties": { "Name": "ANEXO SALUD - C. Nº 13", "description": null }, "geometry": { "type": "Point", "coordinates": [ -57.5647, -38.00924, 0.0 ] } },
{ "type": "Feature", "properties": { "Name": "Ayacucho 3537 - C. Nº13", "description": null }, "geometry": { "type": "Point", "coordinates": [ -57.55018, -37.986149, 0.0 ] } },
{ "type": "Feature", "properties": { "Name": "ANEXO ARQUITECTURA - C. Nº 13", "description": null }, "geometry": { "type": "Point", "coordinates": [ -57.570819, -38.012627, 0.0 ] } },
{ "type": "Feature", "properties": { "Name": "Bernardo de Irigoyen 4900 - C. Nº 14", "description": null }, "geometry": { "type": "Point", "coordinates": [ -57.544573, -38.036614, 0.0 ] } },
{ "type": "Feature", "properties": { "Name": "Jardín Nº17 - C. Nº14", "description": null }, "geometry": { "type": "Point", "coordinates": [ -57.546117, -38.037051, 0.0 ] } },
{ "type": "Feature", "properties": { "Name": "Rawson 6390 - C. Nº15", "description": null }, "geometry": { "type": "Point", "coordinates": [ -57.591567, -37.988306, 0.0 ] } },
{ "type": "Feature", "properties": { "Name": "Cuba y 37 - C. Nº 16", "description": null }, "geometry": { "type": "Point", "coordinates": [ -57.596987, -38.023574, 0.0 ] } },
{ "type": "Feature", "properties": { "Name": "Cuba 1911 - C. Nº 16", "description": null }, "geometry": { "type": "Point", "coordinates": [ -57.597723, -38.024093, 0.0 ] } },
{ "type": "Feature", "properties": { "Name": "CALLE 10 1972 - C. Nº 17", "description": null }, "geometry": { "type": "Point", "coordinates": [ -57.587679, -38.10728, 0.0 ] } },
{ "type": "Feature", "properties": { "Name": "CALLE 10 1975 - C. Nº17", "description": null }, "geometry": { "type": "Point", "coordinates": [ -57.588127, -38.107161, 0.0 ] } },
{ "type": "Feature", "properties": { "Name": "CALLE 455 499-599 - C. Nº17", "description": null }, "geometry": { "type": "Point", "coordinates": [ -57.586003, -38.106725, 0.0 ] } },
{ "type": "Feature", "properties": { "Name": "Falucho 10080 - C. Nº18", "description": null }, "geometry": { "type": "Point", "coordinates": [ -57.626815, -37.967432, 0.0 ] } },
{ "type": "Feature", "properties": { "Name": "Falucho 1019 - C. Nº 18", "description": null }, "geometry": { "type": "Point", "coordinates": [ -57.628897, -37.965977, 0.0 ] } },
{ "type": "Feature", "properties": { "Name": "Padre Dutto 2530 - C. Nº19", "description": null }, "geometry": { "type": "Point", "coordinates": [ -57.56839, -38.054089, 0.0 ] } },
{ "type": "Feature", "properties": { "Name": "Sicilia y Rondeau - C. Nº19", "description": null }, "geometry": { "type": "Point", "coordinates": [ -57.567316, -38.054546, 0.0 ] } },
{ "type": "Feature", "properties": { "Name": "Pigue 600 - C. Nº 20", "description": null }, "geometry": { "type": "Point", "coordinates": [ -57.598948, -37.960492, 0.0 ] } },
{ "type": "Feature", "properties": { "Name": "12 de Octubre 3384 - C. Nº21", "description": null }, "geometry": { "type": "Point", "coordinates": [ -57.547261, -38.042471, 0.0 ] } },
{ "type": "Feature", "properties": { "Name": "Valencia 9099 - C. Nº 22", "description": null }, "geometry": { "type": "Point", "coordinates": [ -57.59502, -37.945645, 0.0 ] } },
{ "type": "Feature", "properties": { "Name": "J.P. Ramos 675 - C. Nº 23", "description": null }, "geometry": { "type": "Point", "coordinates": [ -57.576789, -38.023517, 0.0 ] } },
{ "type": "Feature", "properties": { "Name": "Ortiz de Zárate 10799 - C. Nº 24", "description": null }, "geometry": { "type": "Point", "coordinates": [ -57.614991, -37.995981, 0.0 ] } },
{ "type": "Feature", "properties": { "Name": "Dolores 800 - C. Nº25", "description": null }, "geometry": { "type": "Point", "coordinates": [ -57.58047, -38.022456, 0.0 ] } },
{ "type": "Feature", "properties": { "Name": "EGB N°26 - C. Nº23", "description": null }, "geometry": { "type": "Point", "coordinates": [ -57.576384, -38.023149, 0.0 ] } },
{ "type": "Feature", "properties": { "Name": "Jardín De Infantes Nº940", "description": null }, "geometry": { "type": "Point", "coordinates": [ -57.615411, -38.02208, 0.0 ] } },
{ "type": "Feature", "properties": { "Name": "Instituto Jesus Maria Jardín,Primaria y Secundaria", "description": null }, "geometry": { "type": "Point", "coordinates": [ -57.599688, -37.988002, 0.0 ] } },
{ "type": "Feature", "properties": { "Name": "Instituto Huailen", "description": null }, "geometry": { "type": "Point", "coordinates": [ -57.596732, -37.99073, 0.0 ] } },
{ "type": "Feature", "properties": { "Name": "Escuela De Educación Secundaria Nº33", "description": null }, "geometry": { "type": "Point", "coordinates": [ -57.582911, -38.050384, 0.0 ] } },
{ "type": "Feature", "properties": { "Name": "Escuela De Educación Primaria Nº64 \"Armada Nacional\"", "description": null }, "geometry": { "type": "Point", "coordinates": [ -57.582332, -38.050033, 0.0 ] } },
{ "type": "Feature", "properties": { "Name": "Escuela 38 Almafuerte", "description": null }, "geometry": { "type": "Point", "coordinates": [ -57.596446, -37.97752, 0.0 ] } },
{ "type": "Feature", "properties": { "Name": "Centro Educativo De Nivel Secundario Nº461  - CORREDOR Nº 26", "description": null }, "geometry": { "type": "Point", "coordinates": [ -57.705909, -38.004599, 0.0 ] } },
{ "type": "Feature", "properties": { "Name": "JARDÍN 4 - CORREDOR Nº 26", "description": null }, "geometry": { "type": "Point", "coordinates": [ -57.705129, -38.004658, 0.0 ] } },
{ "type": "Feature", "properties": { "Name": "Jardín de Infantes N° 7 María Elena Waish - CORREDOR Nº27", "description": null }, "geometry": { "type": "Point", "coordinates": [ -57.774642, -37.941007, 0.0 ] } },
{ "type": "Feature", "properties": { "Name": "E.P. N°49 \"Vicente Lopez y Planes\" - CORREDOR 27", "description": null }, "geometry": { "type": "Point", "coordinates": [ -57.774872, -37.940649, 0.0 ] } },
{ "type": "Feature", "properties": { "Name": "Escuela de Educacion Secundaria N° 13 - CORREDOR Nº 27", "description": null }, "geometry": { "type": "Point", "coordinates": [ -57.774742, -37.940575, 0.0 ] } }
]
}
